,Location,Latitude,Longitude,Altitude
0,Bhojpur Municipality,27.181827363,87.067922786,1503.0
1,Shadananda Municipality,27.33764,87.10635,1404.0
2,Aamchowk Rural Municipality,26.97234,87.03712,1208.0
3,Arun Rural Municipality,27.18656,87.20954,945.0
4,Hatuwagadhi Rural Municipality,26.99571,87.14134,918.0
5,Pauwadungma Rural Municipality,27.12322,87.14726,1816.0
6,Ramprasad Rai Rural Municipality,27.0812,87.03347,1573.0
7,Salpasilichho Rural Municipality,27.38315,86.98153,1965.0
8,Temkemaiyung Rural Municipality,27.20829,86.96277,1770.0
9,Dhankuta Municipality,26.990928225,87.330991692,1212.0
10,Mahalaxmi Municipality,27.13367,87.33563,721.0
11,Pakhribas Municipality,27.05068,87.28551,1756.0
12,Chaubise Rural Municipality,26.92253,87.46656,688.0
13,Chhathar Jorpati Rural Municipality,27.02585,87.4054,1593.0
14,Sangurigadhi Rural Municipality,26.90018,87.29004,844.0
15,Shahidbhumi Rural Municipality,26.990928225,87.330991692,1212.0
16,Deumai Municipality,26.93196,87.84665,1500.0
17,Illam Municipality,26.90943,87.92824,1219.0
18,Mai Municipality,26.76981,87.86497,224.0
19,Suryodaya Municipality,26.89588,88.06804,1519.0
20,Chulachuli Rural Municipality,26.70375,87.76221,166.0
21,Fakphokthum Rural Municipality,26.96886,87.75438,1129.0
22,Maijogmai Rural Municipality,26.96086,88.00746,1663.0
23,Mangsebung Rural Municipality,26.82741,87.73528,679.0
24,Rong Rural Municipality,26.80445,88.0665,811.0
25,Sandakpur Rural Municipality,27.10454,88.00176,3585.0
26,Arjundhara Municipality,26.67809,87.96977,140.0
27,Bhadrapur Municipality,26.55644,88.08843,94.0
28,Birtamod Municipality,26.64481,87.99957,133.0
29,Damak Municipality,26.66337,87.69679,132.0
30,Gauradhaha Municipality,26.5478,87.6957,96.0
31,Kankai Municipality,26.63676,87.91362,114.0
32,Mechinagar Municipality,26.67284,88.12301,136.0
33,Shivasataxi Municipality,26.60888,87.81451,109.0
34,Barhadashi Rural Municipality,26.57234,87.94778,101.0
35,Buddhashanti Rural Municipality,26.74111,88.07108,272.0
36,Gauriganj Rural Municipality,26.44818,87.72172,78.0
37,Haldibari Rural Municipality,26.56099,88.01784,102.0
38,Jhapa Rural Municipality,26.584848206,87.912824356,99.0
39,Kachankawal Rural Municipality,26.41516,88.0072,71.0
40,Kamal Rural Municipality,26.60765,87.74785,113.0
41,Diktel Rupakot Majhuwagadhi Municipality,27.21597,86.79353,1635.0
42,Halesi Tuwachung Municipality,27.1675,86.60338,825.0
43,Ainselukhark Rural Municipality,27.35575,86.76429,1404.0
44,Barahapokhari Rural Municipality,26.94036,86.82308,1067.0
45,Diprung Chuichumma Rural Municipality,27.09882,86.79366,1491.0
46,Jantedhunga Rural Municipality,26.97132,86.91221,1131.0
47,Kepilasagadhi Rural Municipality,27.34912,86.88847,1885.0
48,Khotehang Rural Municipality,27.04409,86.85225,1457.0
49,Rawa Besi Rural Municipality,28.07403,83.79952,769.0
50,Sakela Rural Municipality,27.17836,86.87524,1886.0
51,Biratnagar Metropolitian City,26.46531,87.2829,79.0
52,Belbari Municipality,26.67158,87.43315,158.0
53,Letang Municipality,26.71559,87.50711,238.0
54,Patahrishanishchare Municipality,26.60929,87.56405,105.0
55,Rangeli Municipality,26.45718,87.4864,71.0
56,Ratuwamai Municipality,26.48445,87.61591,80.0
57,Sundarharaicha Municipality,26.6589,87.34543,128.0
58,Sunwarshi Municipality,26.4822,87.54115,77.0
59,Uralabari Municipality,26.63861,87.63007,117.0
60,Budhiganga Rural Municipality,26.56215,87.30402,88.0
61,Dhanpalthan Rural Municipality,26.46108,87.40889,72.0
62,Gramthan Rural Municipality,26.55538,87.35998,91.0
63,Jahada Rural Municipality,26.40881,87.33565,70.0
64,Kanepokhari Rural Municipality,26.6588,87.49385,155.0
65,Katahari Rural Municipality,26.46485,87.32016,73.0
66,Kerabari Rural Municipality,26.70925,87.37016,191.0
67,Miklajung Rural Municipality,26.7817,87.62295,487.0
68,Siddhicharan Municipality,27.33949,86.53114,1931.0
69,Champadevi Rural Municipality,27.30792,86.31107,1129.0
70,Chisankhugadhi Rural Municipality,27.31756,86.62007,1042.0
71,Khijidemba Rural Municipality,27.44937,86.35829,2536.0
72,Likhu Rural Municipality,27.37352,86.26493,1630.0
73,Manebhanjyang Rural Municipality,27.21566,86.44515,1530.0
74,Molung Rural Municipality,27.36634,86.41156,1353.0
75,Sunkoshi Rural Municipality,27.27451,86.36924,1292.0
76,Phidim Municipality,27.13076,87.76184,1414.0
77,Falelung Rural Municipality,27.16811,87.9289,2319.0
78,Falgunanda Rural Municipality,27.115000259,87.775789465,2055.0
79,Hilihang Rural Municipality,27.22121,87.7943,957.0
80,Kummayak Rural Municipality,27.07484,87.62347,1250.0
81,Miklajung Rural Municipality,26.9379,87.65494,1741.0
82,Tumbewa Rural Municipality,26.983,87.57121,1368.0
83,Yangwarak Rural Municipality,27.32617,88.03053,2779.0
84,Chainpur Municipality,27.28938,87.31202,1228.0
85,Dharmadevi Municipality,27.2005,87.3591,1915.0
86,Khandbari Municipality,27.37465,87.20749,1043.0
87,Madi Municipality,27.25216,87.41284,2571.0
88,Panchakhapan Municipality,27.35302,87.30412,821.0
89,Bhotkhola Rural Municipality,27.74682,87.4868,2917.0
90,Chichila Rural Municipality,27.46361,87.23046,1878.0
91,Makalu Rural Municipality,27.55933,87.25219,813.0
92,Sabhapokhari Rural Municipality,27.40615,87.44418,3621.0
93,Silichong Rural Municipality,27.51476,87.07129,1894.0
94,Solududhakunda Municipality,27.56847,86.58746,2703.0
95,Khumbupasanglahmu Rural Municipality,27.84419,86.72059,5094.0
96,Likhupike Rural Municipality,27.55043,86.43626,3204.0
97,Maapya Dudhkoshi Rural Municipality,27.53875,86.69517,2068.0
98,Mahakulung Rural Municipality,27.65559,86.90195,4944.0
99,Nechasalyan Rural Municipality,27.39566,86.59779,1770.0
100,Sotang Rural Municipality,27.48533,86.7992,1190.0
101,Thulung Dudhkoshi Rural Municipality,27.53875,86.69517,2068.0
102,Barahchhetra Municipality,26.83235,87.16186,282.0
103,Duhabi Municipality,26.58312,87.2745,94.0
104,Inaruwa Municipality,26.60346,87.14965,90.0
105,Ramdhuni Municipality,26.68945,87.17425,100.0
106,Barju Rural Municipality,26.46088,87.21225,71.0
107,Bhokraha Narsing Rural Municipality,26.63086,87.10128,95.0
108,Dewanganj Rural Municipality,26.45179,87.13805,78.0
109,Gadhi Rural Municipality,26.5642,87.18368,84.0
110,Harinagar Rural Municipality,26.5013,87.12162,81.0
111,Koshi Rural Municipality,26.649992735,87.169251629,96.0
112,Dharan Sub-Metropolitian City,26.80708,87.28475,350.0
113,Itahari Sub-Metropolitian City,26.6631,87.27377,117.0
114,Phungling Municipality,27.36118,87.65222,1448.0
115,Aathrai Tribeni Rural Municipality,27.31899,87.61039,1391.0
116,Maiwakhola Rural Municipality,27.38971,87.5041,2806.0
117,Meringden Rural Municipality,26.99653,87.71286,2154.0
118,Mikwakhola Rural Municipality,27.55884,87.61268,2782.0
119,Pathivara Yangwarak Rural Municipality,27.32514,87.73428,1921.0
120,Phaktanglung Rural Municipality,27.68142,87.92025,4927.0
121,Sidingba Rural Municipality,27.35794,87.94596,2603.0
122,Sirijangha Rural Municipality,27.49426,87.96349,3481.0
123,Laligurans Municipality,27.12937,87.45301,1710.0
124,Myanglung Municipality,27.10363,87.54679,1655.0
125,Aathrai Rural Municipality,27.20727,87.68447,1600.0
126,Chhathar Rural Municipality,26.9847,87.4709,721.0
127,Menchayam Rural Municipality,27.154443422,87.548968457,1062.0
128,Phedap Rural Municipality,27.1964,87.57914,2192.0
129,Belaka Municipality,26.81696,87.05432,146.0
130,Chaudandigadhi Municipality,26.87973,86.93684,965.0
131,Katari Municipality,26.955,86.37841,218.0
132,Triyuga Municipality,26.7919,86.699,165.0
133,Limchungbung Rural Municipality,26.903076703,86.681347466,1075.0
134,Rautamai Rural Municipality,26.93522,86.69906,1795.0
135,Tapli Rural Municipality,27.08591,86.53682,599.0
136,Udayapurgadhi Rural Municipality,26.91515,86.55004,682.0
137,Kolhabi Municipality,27.09226,85.14446,115.0
138,Mahagadhimai Municipality,26.98198,85.05344,96.0
139,Nijgadh Municipality,27.20986,85.14178,189.0
140,Pacharauta Municipality,26.909,85.07907,83.0
141,Simraungadh Municipality,26.89957,85.13285,83.0
142,Adarshkotwal Rural Municipality,26.94569,85.14527,90.0
143,Baragadhi Rural Municipality,27.03777,85.12796,98.0
144,Bishrampur Rural Municipality,27.08282,85.39485,127.0
145,Devtal Rural Municipality,26.94815,85.01322,87.0
146,Karaiyamai Rural Municipality,27.02564,85.10103,98.0
147,Parwanipur Rural Municipality,27.12512,85.74784,409.0
148,Pheta Rural Municipality,27.00674,84.94309,89.0
149,Prasauni Rural Municipality,27.08446,85.11327,112.0
150,Suwarna Rural Municipality,26.92622,85.06191,83.0
151,Jitpur Simara Sub-Metropolitian City,27.21465,85.01468,201.0
152,Kalaiya Sub-Metropolitian City,27.67465,85.32364,1326.0
153,Bideha Municipality,26.68535,86.06249,79.0
154,Chhireshwornath Municipality,26.84729,85.96202,112.0
155,Dhanusadham Municipality,26.88194,86.03908,135.0
156,Ganeshman Charnath Municipality,26.92745,86.21001,225.0
157,Hansapur Municipality,28.17034,84.641,1445.0
158,Kamala Municipality,26.85116,86.03592,116.0
159,Mithila Bihari Municipality,26.79502,86.01362,97.0
160,Mithila Municipality,26.99735,85.97365,313.0
161,Nagarain Municipality,26.66034,85.93633,72.0
162,Sabaila Municipality,26.79502,86.10218,93.0
163,Sahidnagar Municipality,26.73352,86.09848,88.0
164,Aaurahi Rural Municipality,26.6917,86.00311,73.0
165,Bateshwor Rural Municipality,26.91822,85.92106,162.0
166,Dhanauji Rural Municipality,26.67741,85.99672,76.0
167,Janaknandani Rural Municipality,26.63676,86.12911,75.0
168,Lakshminiya Rural Municipality,27.13828,85.23707,156.0
169,Mukhiyapatti Musarmiya Rural Municipality,26.60232,85.88213,64.0
170,Janakpurdham Sub-Metropolitian City,26.72882,85.92628,83.0
171,Aurahi Municipality,26.89756,85.81682,119.0
172,Balwa Municipality,26.77124,85.81752,84.0
173,Bardibas Municipality,26.97885,85.88683,202.0
174,Bhangaha Municipality,26.85139,85.87116,102.0
175,Gaushala Municipality,26.92078,85.80564,128.0
176,Jaleswor Municipality,26.64127,85.7913,68.0
177,Loharpatti Municipality,26.80186,85.8493,89.0
178,Manra Siswa Municipality,26.72737,85.76102,75.0
179,Matihani Municipality,26.61708,85.84079,66.0
180,Ramgopalpur Municipality,26.81037,85.79899,87.0
181,Ekdanra Rural Municipality,26.6751,85.74868,69.0
182,Mahottari Rural Municipality,26.879142237,85.819913653,108.0
183,Pipra Rural Municipality,26.70745,85.85249,78.0
184,Samsi Rural Municipality,26.80872,85.73249,88.0
185,Sonama Rural Municipality,26.86226,85.74337,99.0
186,Birgunj Metropolitian City,27.239626604,84.780150251,159.0
187,Bahudaramai Municipality,27.07853,84.8238,92.0
188,Parsagadhi Municipality,27.16668,84.89306,116.0
189,Pokhariya Municipality,27.08189,84.75855,88.0
190,Bindabasini Rural Municipality,27.03908,84.81501,86.0
191,Chhipaharmai Rural Municipality,27.06336,84.6647,87.0
192,Dhobini Rural Municipality,27.07338,84.69091,89.0
193,Jagarnathpur Rural Municipality,27.06714,84.69047,90.0
194,Jirabhawani Rural Municipality,27.18584,84.7057,109.0
195,Kalikamai Rural Municipality,27.239626604,84.780150251,159.0
196,Pakahamainpur Rural Municipality,27.02523,84.73609,81.0
197,Paterwasugauli Rural Municipality,27.18718,84.77259,114.0
198,SakhuwaPrasauni Rural Municipality,27.16299,84.81942,102.0
199,Thori Rural Municipality,27.36705,84.62481,289.0
200,Baudhimai Municipality,26.8926,85.23308,83.0
201,Brindaban Municipality,27.04348,85.39737,111.0
202,Chandrapur Municipality,27.12629,85.3846,140.0
203,Dewahhi Gonahi Municipality,26.91225,85.25573,85.0
204,Gadhimai Municipality,26.9459,85.3713,91.0
205,Garuda Municipality,26.95129,85.3259,92.0
206,Gaur Municipality,26.77969,85.27556,74.0
207,Gujara Municipality,27.11174,85.25082,134.0
208,Ishanath Municipality,26.80056,85.20921,75.0
209,Katahariya Municipality,26.97495,85.2354,93.0
210,Madhav Narayan Municipality,26.88932,85.33878,86.0
211,Maulapur Municipality,26.92703,85.19877,87.0
212,Paroha Municipality,26.85098,85.2339,80.0
213,Phatuwa Bijayapur Municipality,27.03446,85.20542,105.0
214,Rajdevi Municipality,26.76473,85.34324,76.0
215,Rajpur Municipality,26.81286,85.25954,78.0
216,Durga Bhagwati Rural Municipality,26.83213,85.31311,80.0
217,Yemunamai Rural Municipality,27.00158038,85.302305403,93.0
218,Bode Barsain Municipality,26.5704,86.5834,90.0
219,Dakneshwori Municipality,26.53181,86.63346,85.0
220,Hanumannagar Kankalini Municipality,26.51172,86.87737,74.0
221,Kanchanrup Municipality,26.63123,86.89474,101.0
222,Khadak Municipality,26.63143,86.59766,115.0
223,Rajbiraj Municipality,26.5402,86.74859,88.0
224,Saptakoshi Rural Municipality,26.71733,86.93621,102.0
225,Shambhunath Municipality,26.60153,86.68252,111.0
226,Surunga Municipality,26.69416,86.55093,140.0
227,Agnisair Krishna Savaran Rural Municipality,26.64004,86.78881,134.0
228,Balan Bihul Rural Municipality,26.598053399,86.746158901,106.0
229,Bishnupur Rural Municipality,26.5033,86.72616,80.0
230,Chhinnamasta Rural Municipality,26.44666,86.71646,71.0
231,Mahadeva Rural Municipality,26.53745,86.81135,80.0
232,Rajgadh Rural Municipality,26.598053399,86.746158901,106.0
233,Rupani Rural Municipality,26.62979,86.71173,133.0
234,Tilathi Koiladi Rural Municipality,26.4906,86.8265,74.0
235,Tirahut Rural Municipality,26.59105,86.86199,92.0
236,Bagmati Municipality,27.08079,85.4792,120.0
237,Balara Municipality,26.77821,85.37508,76.0
238,Barahathawa Municipality,27.01953,85.45917,103.0
239,Godaita Municipality,26.86194,85.46627,84.0
240,Haripur Municipality,27.02448,85.58192,122.0
241,Haripurwa Municipality,26.89601,85.68485,100.0
242,Hariwan Municipality,27.09165,85.58205,149.0
243,Ishworpur Municipality,27.0048,85.61587,123.0
244,Kabilasi Municipality,27.89754,85.29511,1257.0
245,Lalbandi Municipality,27.05429,85.63239,152.0
246,Malangawa Municipality,26.85559,85.55996,87.0
247,Basbariya Rural Municipality,27.066,85.00138,106.0
248,Bishnu Rural Municipality,26.8309,85.49052,81.0
249,Bramhapuri Rural Municipality,26.88788,85.6127,88.0
250,Chakraghatta Rural Municipality,26.89465,85.52807,93.0
251,Chandranagar Rural Municipality,26.93626,85.60454,101.0
252,Dhankaul Rural Municipality,26.90299,85.43744,86.0
253,Kaudena Rural Municipality,26.86177,85.50894,87.0
254,Parsa Rural Municipality,26.88216,85.63519,91.0
255,Ramnagar Rural Municipality,26.85201,85.38723,83.0
256,Dhangadhimai Municipality,26.80999,86.42795,207.0
257,Golbazar Municipality,26.80322,86.3346,152.0
258,Kalyanpur Municipality,26.76345,86.20346,93.0
259,Karjanha Municipality,26.84219,86.21497,122.0
260,Lahan Municipality,26.7125,86.48811,122.0
261,Mirchaiya Municipality,26.85932,86.17007,106.0
262,Siraha Municipality,26.7125,86.48811,122.0
263,Sukhipur Municipality,26.70995,86.34997,104.0
264,Arnama Rural Municipality,26.69381,86.28559,94.0
265,Aurahi Rural Municipality,26.62763,86.3004,82.0
266,Bariyarpatti Rural Municipality,26.63194,86.34527,86.0
267,Bhagawanpur Rural Municipality,26.59148,86.48686,88.0
268,Bishnupur Rural Municipality,26.72635,86.24977,95.0
269,Laxmipur Patari Rural Municipality,26.6702,86.3922,99.0
270,Naraha Rural Municipality,26.746454493,86.342424177,122.0
271,Nawarajpur Rural Municipality,26.59806,86.40927,91.0
272,Sakhuwanankarkatti Rural Municipality,26.63894,86.50025,108.0
273,Bhumekasthan Municipality,27.98799,83.17605,1013.0
274,Sandhikharka Municipality,27.97263,83.12486,954.0
275,Sitganga Municipality,27.83968,82.98723,1207.0
276,Chhatradev Rural Municipality,28.01024,83.20679,967.0
277,Malarani Rural Municipality,28.06702,83.07274,1769.0
278,Panini Rural Municipality,27.88416,83.25291,1058.0
279,Kohalpur Municipality,28.22553,81.72842,179.0
280,Baijanath Rural Municipality,28.24311,81.65924,174.0
281,Duduwa Rural Municipality,28.0332,81.71051,140.0
282,Janki Rural Municipality,28.087173474,81.822276922,155.0
283,Khajura Rural Municipality,28.07408,81.62037,147.0
284,Narainapur Rural Municipality,27.90277,81.84215,139.0
285,Rapti Sonari Rural Municipality,28.09756,81.87933,210.0
286,Nepalgunj Sub-Metropolitian City,28.05,81.61667,149.0
287,Bansagadhi Municipality,28.35832,81.73851,475.0
288,Barbardiya Municipality,28.32224,81.3977,158.0
289,Gulariya Municipality,28.2058,81.34532,147.0
290,Madhuwan Municipality,28.33577,81.2707,162.0
291,Rajapur Municipality,28.42721,81.09123,145.0
292,Thakurbaba Municipality,28.4436,81.28988,184.0
293,Badhaiyatal Rural Municipality,28.15209,81.48387,145.0
294,Geruwa Rural Municipality,28.49915,81.1873,162.0
295,Lamahi Municipality,27.87183,82.52079,258.0
296,Babai Rural Municipality,28.16829,82.08431,598.0
297,Banglachuli Rural Municipality,27.99384,82.67143,1529.0
298,Dangisharan Rural Municipality,28.08608,82.15646,580.0
299,Gadhawa Rural Municipality,27.81001,82.53929,256.0
300,Rajpur Rural Municipality,27.88404,82.23904,532.0
301,Rapti Rural Municipality,27.968780912,82.402294235,821.0
302,Shantinagar Rural Municipality,28.15982,82.22356,667.0
303,Ghorahi Sub-Metropolitian City,27.67465,85.32364,1326.0
304,Tulsipur Sub-Metropolitian City,28.15346,82.31172,745.0
305,Musikot Municipality,28.17156,83.25859,1213.0
306,Resunga Municipality,28.05267,83.25598,1500.0
307,Chandrakot Rural Municipality,28.1153,83.4355,1736.0
308,Chatrakot Rural Municipality,27.98666,83.34978,1180.0
309,Dhurkot Rural Municipality,28.11827,83.16532,1245.0
310,Gulmidarbar Rural Municipality,28.0416,83.31386,1170.0
311,Isma Rural Municipality,28.16501,83.21671,1295.0
312,Kaligandaki Rural Municipality,28.05226,83.52767,1360.0
313,Madane Rural Municipality,28.17505,83.06921,1495.0
314,Malika Rural Municipality,28.21359,83.14999,2004.0
315,Ruru Rural Municipality,27.94827,83.42579,881.0
316,Satyawati Rural Municipality,28.02869,83.47358,1425.0
317,Banganga Municipality,27.69013,83.21047,168.0
318,Buddhabhumi Municipality,27.68409,83.00297,119.0
319,Kapilbastu Municipality,27.5445,83.05356,108.0
320,Krishnanagar Municipality,27.50662,82.78785,101.0
321,Maharajgunj Municipality,27.5369,82.94074,102.0
322,Shivaraj Municipality,27.5445,83.05356,108.0
323,Bijayanagar Rural Municipality,27.55008,82.83081,105.0
324,Mayadevi Rural Municipality,27.5246,83.1424,101.0
325,Suddhodhan Rural Municipality,27.50984,83.19537,97.0
326,Yashodhara Rural Municipality,27.48504,83.05861,95.0
327,Bardaghat Municipality,27.56847,83.79448,208.0
328,Ramgram Municipality,27.52867,83.67453,114.0
329,Sunwal Municipality,27.61889,83.64176,135.0
330,Palhi Nandan Rural Municipality,27.4806,83.66486,110.0
331,Pratappur Rural Municipality,27.45968,83.81821,109.0
332,Sarawal Rural Municipality,27.49197,83.72584,109.0
333,Susta Rural Municipality,27.633725066,83.953150123,186.0
334,Rampur Municipality,27.85795,83.89469,421.0
335,Tansen Municipality,27.86731,83.5467,1299.0
336,Bagnaskali Rural Municipality,27.87945,83.60755,944.0
337,Mathagadhi Rural Municipality,27.76547,83.65733,1291.0
338,Nisdi Rural Municipality,27.87129,83.81237,358.0
339,Purbakhola Rural Municipality,27.8241,83.78219,1007.0
340,Rainadevi Chhahara Rural Municipality,27.85833,83.3507,1544.0
341,Rambha Rural Municipality,27.86715,83.6886,1722.0
342,Ribdikot Rural Municipality,27.86674,83.45471,1361.0
343,Tinau Rural Municipality,27.76465,83.47024,797.0
344,Pyuthan Municipality,28.25,82.83333,1569.0
345,Sworgadwary Municipality,28.13282,82.69597,1320.0
346,Ayirabati Rural Municipality,27.93301,82.94194,395.0
347,Gaumukhi Rural Municipality,28.25377,83.03231,1291.0
348,Jhimruk Rural Municipality,28.14881,82.98607,1201.0
349,Mallarani Rural Municipality,28.07563,82.91985,1259.0
350,Mandavi Rural Municipality,28.04734,82.77364,1038.0
351,Naubahini Rural Municipality,28.25316,82.91058,1813.0
352,Sarumarani Rural Municipality,27.94505,82.83908,634.0
353,Rolpa Municipality,28.344170708,82.628061641,1519.0
354,Gangadev Rural Municipality,28.32627,82.51661,1734.0
355,Lungri Rural Municipality,28.26587,82.81048,1526.0
356,Madi Rural Municipality,28.40239,82.50796,1219.0
357,Pariwartan Rural Municipality,28.344170708,82.628061641,1519.0
358,Runtigadi Rural Municipality,28.17731,82.51468,1785.0
359,Sunchhahari Rural Municipality,28.38025,82.83012,1999.0
360,Sunil Smriti Rural Municipality,28.344170708,82.628061641,1519.0
361,Thawang Rural Municipality,28.45897,82.74293,2701.0
362,Tribeni Rural Municipality,28.31085,82.43084,1427.0
363,Bhume Rural Municipality,28.56659,82.68457,2013.0
364,Putha Uttarganga Rural Municipality,28.65782,82.807,2186.0
365,Sisne Rural Municipality,28.7806,82.67425,2554.0
366,Devdaha Municipality,27.63345,83.57195,134.0
367,Lumbini Sanskritik Municipality,27.46987,83.24785,96.0
368,Sainamaina Municipality,27.70746,83.30405,135.0
369,Siddharthanagar Municipality,27.50495,83.43688,108.0
370,Tillotama Municipality,27.6109,83.49071,124.0
371,Gaidahawa Rural Municipality,27.59386,83.26242,127.0
372,Kanchan Rural Municipality,27.63796,83.26374,118.0
373,Kotahimai Rural Municipality,27.576640942,83.38953577,108.0
374,Marchawari Rural Municipality,27.41166,83.37358,102.0
375,Mayadevi Rural Municipality,27.51435,83.36778,103.0
376,Omsatiya Rural Municipality,27.5251,83.50926,117.0
377,Rohini Rural Municipality,27.50103,83.5515,106.0
378,Sammarimai Rural Municipality,27.44609,83.34465,98.0
379,Siyari Rural Municipality,27.5697,83.37717,109.0
380,Sudhdhodhan Rural Municipality,27.61418,83.3671,118.0
381,Butwal Sub-Metropolitian City,27.67465,85.32364,1326.0
382,Bhaktapur Municipality,27.69093,84.42484,191.0
383,Changunarayan Municipality,27.71711,85.4318,1493.0
384,Madhyapur Thimi Municipality,27.67441,85.36008,1319.0
385,Suryabinayak Municipality,27.666279993796,85.428742542665,1322.0
386,Bharatpur Metropolitian City,27.6768,84.43589,213.0
387,Kalika Municipality,27.69543,85.766,1075.0
388,Khairahani Municipality,27.61623,84.56904,201.0
389,Madi Municipality,27.43461,84.35334,232.0
390,Rapti Municipality,27.64944,84.66375,418.0
391,Ratnanagar Municipality,27.61541,84.51206,196.0
392,Ichchhyakamana Rural Municipality,27.80278,84.58055,1040.0
393,Dhunibesi Municipality,27.72283,85.17161,971.0
394,Nilakantha Municipality,27.86424,84.9283,1461.0
395,Benighat Rorang Rural Municipality,27.74682,84.75988,943.0
396,Gajuri Rural Municipality,27.76708,84.86147,1033.0
397,Galchi Rural Municipality,27.78044,84.98979,878.0
398,Gangajamuna Rural Municipality,28.09141,84.92378,2325.0
399,Jwalamukhi Rural Municipality,27.92024,84.79439,845.0
400,Khaniyabash Rural Municipality,28.03868,85.00189,1308.0
401,Netrawati Dabjong Rural Municipality,27.98994,84.97375,1618.0
402,Rubi Valley Rural Municipality,28.22589,85.08414,2419.0
403,Siddhalek Rural Municipality,27.84644,84.83869,679.0
404,Thakre Rural Municipality,27.72709,85.09538,1300.0
405,Tripura Sundari Rural Municipality,27.9407,84.78035,1163.0
406,Bhimeshwor Municipality,27.67855,86.02374,2056.0
407,Jiri Municipality,27.63275,86.22571,1943.0
408,Baiteshwor Rural Municipality,27.63653,86.13459,1666.0
409,Bigu Rural Municipality,27.84049,86.01372,3572.0
410,Gaurishankar Rural Municipality,27.88281,86.40671,4032.0
411,Kalinchok Rural Municipality,27.78933,86.0898,1720.0
412,Melung Rural Municipality,27.51633,86.07123,1329.0
413,Sailung Rural Municipality,27.61418,85.97999,1948.0
414,Tamakoshi Rural Municipality,27.54264,86.1239,2120.0
415,Kathmandu Metropolitian City,27.70819,85.30569,1313.0
416,Budhanilakantha Municipality,27.77715,85.36395,1455.0
417,Chandragiri Municipality,27.68696,85.23522,1418.0
418,Dakshinkali Municipality,27.60479,85.27292,1440.0
419,Gokarneshwor Municipality,27.76527,85.40792,1625.0
420,Kageshwori Manahora Municipality,27.73165,85.41696,1376.0
421,Kirtipur Municipality,27.68221,85.27269,1377.0
422,Nagarjun Municipality,27.72427,85.26045,1537.0
423,Shankharapur Municipality,27.75297,85.5037,1626.0
424,Tarakeshwor Municipality,27.77716,85.29068,1386.0
425,Tokha Municipality,27.7749,85.33492,1363.0
426,Banepa Municipality,27.63245,85.52192,1475.0
427,Dhulikhel Municipality,27.6221,85.54281,1480.0
428,Mandandeupur Municipality,27.70725,85.59814,881.0
429,Namobuddha Municipality,27.55556,85.63653,1217.0
430,Panauti Municipality,27.58466,85.52122,1438.0
431,Panchkhal Municipality,27.6437,85.63998,870.0
432,Bethanchowk Rural Municipality,27.50472,85.50667,1946.0
433,Bhumlu Rural Municipality,27.62689,85.74215,1314.0
434,Chaurideurali Rural Municipality,27.57093,85.78195,1506.0
435,Khanikhola Rural Municipality,27.42743,85.49119,1026.0
436,Mahabharat Rural Municipality,27.3975,85.63072,1253.0
437,Roshi Rural Municipality,27.46843,85.65714,1640.0
438,Temal Rural Municipality,27.51128,85.75572,1742.0
439,Lalitpur Metropolitian City,27.67465,85.32364,1326.0
440,Godawari Municipality,27.58653,85.379,1599.0
441,Mahalaxmi Municipality,27.63263,85.38239,1376.0
442,Bagmati Rural Municipality,27.66617,85.30975,1301.0
443,Konjyosom Rural Municipality,27.52091,85.34789,1713.0
444,Mahankal Rural Municipality,27.47458,85.40533,1453.0
445,Thaha Municipality,27.64432,85.09956,1812.0
446,Bagmati Rural Municipality,27.29583,85.3667,463.0
447,Bakaiya Rural Municipality,27.3401,85.21159,351.0
448,Bhimphedi Rural Municipality,27.5326,85.11616,1204.0
449,Indrasarowar Rural Municipality,27.60147,85.18921,1596.0
450,Kailash Rural Municipality,27.60988,84.95558,1149.0
451,Makawanpurgadhi Rural Municipality,27.41187,85.14203,905.0
452,Manahari Rural Municipality,27.48565,84.8599,328.0
453,Raksirang Rural Municipality,27.59758,84.85797,1159.0
454,Hetauda Sub-Metropolitian City,27.42839,85.03219,466.0
455,Belkotgadhi Municipality,27.82594,85.11147,1451.0
456,Bidur Municipality,27.89277,85.14966,576.0
457,Dupcheshwar Rural Municipality,27.94967,85.39359,1121.0
458,Kakani Rural Municipality,27.81717,85.24556,1850.0
459,Kispang Rural Municipality,28.03525,85.10528,1985.0
460,Likhu Rural Municipality,27.86135,85.40489,1213.0
461,Myagang Rural Municipality,27.915074746,85.235381823,1000.0
462,Panchakanya Rural Municipality,27.89607,85.31347,1390.0
463,Shivapuri Rural Municipality,27.85116,85.36543,1058.0
464,Suryagadhi Rural Municipality,27.94628,85.23922,1104.0
465,Tadi Rural Municipality,27.96657,85.33973,1539.0
466,Tarkeshwar Rural Municipality,27.88355,85.04134,770.0
467,Manthali Municipality,27.37073,86.05003,802.0
468,Ramechhap Municipality,27.32207,86.05913,1073.0
469,Doramba Rural Municipality,27.52115,85.9411,2263.0
470,Gokulganga Rural Municipality,27.58384,86.28,2488.0
471,Khadadevi Rural Municipality,27.42641,85.91784,799.0
472,Likhu Tamakoshi Rural Municipality,27.44814,86.18537,2436.0
473,Sunapati Rural Municipality,27.50677,85.86131,1409.0
474,Umakunda Rural Municipality,27.64432,86.44809,2038.0
475,Amachodingmo Rural Municipality,28.183250125,85.415950059,4263.0
476,Gosaikunda Rural Municipality,28.21175,85.54707,3732.0
477,Kalika Rural Municipality,28.02869,85.21946,1980.0
478,Naukunda Rural Municipality,28.01946,85.30304,2124.0
479,Uttargaya Rural Municipality,28.07173,85.18574,2134.0
480,Dudhouli Municipality,26.99064,86.2725,194.0
481,Kamalamai Municipality,27.21104,85.91268,519.0
482,Ghanglekh Rural Municipality,27.34461,85.7938,1270.0
483,Golanjor Rural Municipality,27.26159,86.05895,979.0
484,Hariharpurgadhi Rural Municipality,27.33363,85.48663,898.0
485,Marin Rural Municipality,27.24806,85.70006,355.0
486,Phikkal Rural Municipality,27.1841,86.29469,2020.0
487,Sunkoshi Rural Municipality,27.38049,85.87751,953.0
488,Tinpatan Rural Municipality,27.13306,86.13256,740.0
489,Barhabise Municipality,27.79124,85.89809,878.0
490,Chautara SangachokGadhi Municipality,27.75092,85.73006,1447.0
491,Melamchi Municipality,27.83022,85.57661,842.0
492,Balefi Rural Municipality,27.73458,85.78235,695.0
493,Bhotekoshi Rural Municipality,27.93172,85.90808,2837.0
494,Helambu Rural Municipality,27.9577,85.55064,1554.0
495,Indrawati Rural Municipality,27.78413,85.62823,1379.0
496,Jugal Rural Municipality,28.00347,85.80813,3183.0
497,Lisangkhu Pakhar Rural Municipality,27.6804,85.88278,2125.0
498,Panchpokhari Thangpal Rural Municipality,27.9512,85.68458,2755.0
499,Sunkoshi Rural Municipality,27.70766,85.81775,1699.0
500,Tripurasundari Rural Municipality,27.75215,85.95203,2363.0
501,Baglung Municipality,28.267588798447,83.599391716966,967.0
502,Dhorpatan Municipality,28.39009,83.11711,2053.0
503,Galkot Municipality,28.25316,83.3833,3017.0
504,Jaimuni Municipality,28.14943,83.58733,1639.0
505,Badigad Rural Municipality,28.26792,83.2537,2204.0
506,Bareng Rural Municipality,28.1364,83.51072,1842.0
507,Kanthekhola Rural Municipality,28.263,83.50821,1470.0
508,Nisikhola Rural Municipality,28.37636,83.02216,2286.0
509,Taman Khola Rural Municipality,28.39651,83.25399,2092.0
510,Tara Khola Rural Municipality,28.33541,83.37422,2016.0
511,Gorkha Municipality,28.00242,84.62009,1155.0
512,Palungtar Municipality,28.04784,84.49116,580.0
513,Aarughat Rural Municipality,28.11909,84.81688,1729.0
514,Ajirkot Rural Municipality,28.15162,84.64008,1789.0
515,Barpak Sulikot Rural Municipality,28.20301,84.74755,1927.0
516,Bhimsenthapa Rural Municipality,27.98003,84.47763,858.0
517,Chum Nubri Rural Municipality,28.542,84.87538,3310.0
518,Dharche Rural Municipality,28.31322,84.89839,1362.0
519,Gandaki Rural Municipality,28.318841303,84.79019815,3845.0
520,Sahid Lakhan Rural Municipality,27.92762,84.64239,1106.0
521,Siranchok Rural Municipality,28.08588,84.5884,1454.0
522,Pokhara Metropolitian City,28.21822,83.97697,862.0
523,Annapurna Rural Municipality,28.43273,83.80456,2892.0
524,Machhapuchchhre Rural Municipality,28.40112,83.98261,1507.0
525,Madi Rural Municipality,28.12363,84.10767,692.0
526,Rupa Rural Municipality,28.14492,84.17076,708.0
527,Besishahar Municipality,28.22956,84.35541,1160.0
528,MadhyaNepal Municipality,28.14758,84.26809,613.0
529,Rainas Municipality,28.10863,84.49414,1198.0
530,Sundarbazar Municipality,28.13237,84.4168,751.0
531,Dordi Rural Municipality,28.2917,84.52849,2410.0
532,Dudhpokhari Rural Municipality,28.23654,84.58983,2811.0
533,Kwholasothar Rural Municipality,28.31097,84.24882,1386.0
534,Marsyangdi Rural Municipality,28.289330951,84.43006976,2380.0
535,Chame Rural Municipality,28.55062,84.25332,2595.0
536,Manang Ingshyang Rural Municipality,28.672919258,84.224515192,3523.0
537,Narpa Bhumi Rural Municipality,28.699028,84.255998,3523.0
538,Narshon Rural Municipality,28.518759,84.358044,3523.0
539,Gharapjhong Rural Municipality,28.76995,83.74752,3538.0
540,Lo-Ghekar Damodarkunda Rural Municipality,28.98131435,83.857874677,3451.0
541,Lomanthang Rural Municipality,29.15568,83.94859,3877.0
542,Thasang Rural Municipality,28.69062,83.58839,3049.0
543,Waragung Muktikhsetra Rural Municipality,28.98131435,83.857874677,3451.0
544,Beni Municipality,28.34476,83.56376,978.0
545,Annapurna Rural Municipality,28.52293,83.70039,2819.0
546,Dhaulagiri Rural Municipality,28.553145105,83.459987712,3368.0
547,Malika Rural Municipality,28.42125,83.36207,1846.0
548,Mangala Rural Municipality,28.37861,83.44644,1256.0
549,Raghuganga Rural Municipality,28.53503,83.51666,1963.0
550,Devchuli Municipality,27.71443,84.20158,543.0
551,Gaidakot Municipality,27.73329,84.34122,429.0
552,Kawasoti Municipality,27.62478,84.14164,157.0
553,Madhyabindu Municipality,27.63571,83.98817,290.0
554,Baudeekali Rural Municipality,27.633725066,83.953150123,186.0
555,Binayee Tribeni Rural Municipality,27.63079,83.86238,167.0
556,Bulingtar Rural Municipality,27.81891,84.19348,598.0
557,Hupsekot Rural Municipality,27.73602,83.98428,1211.0
558,Kushma Municipality,28.22132,83.67977,914.0
559,Phalebas Municipality,28.15813,83.64115,770.0
560,Bihadi Rural Municipality,28.04068,83.56833,720.0
561,Jaljala Rural Municipality,27.36845,87.37216,1676.0
562,Mahashila Rural Municipality,28.09531,83.67373,1483.0
563,Modi Rural Municipality,28.12436,83.64531,1110.0
564,Painyu Rural Municipality,28.04939,83.66475,710.0
565,Bhirkot Municipality,27.58745,86.09845,1463.0
566,Chapakot Municipality,28.06740998899,83.807164991185,762.0
567,Galyang Municipality,27.95817,83.65736,979.0
568,Putalibazar Municipality,28.08826,83.85869,868.0
569,Waling Municipality,27.98536,83.76829,787.0
570,Aandhikhola Rural Municipality,28.16829,83.80122,1021.0
571,Arjunchaupari Rural Municipality,28.07222,83.76014,1285.0
572,Biruwa Rural Municipality,28.0211,83.89361,598.0
573,Harinas Rural Municipality,27.97621,83.95355,1285.0
574,Kaligandagi Rural Municipality,27.95304,83.53811,787.0
575,Phedikhola Rural Municipality,28.16092,83.88977,1091.0
576,Bhanu Municipality,28.00235,84.41739,497.0
577,Bhimad Municipality,27.98918,84.06421,737.0
578,Byas Municipality,28.00371,84.279,509.0
579,Shuklagandaki Municipality,28.06128,84.04733,633.0
580,Anbukhaireni Rural Municipality,27.90954,84.53028,328.0
581,Bandipur Rural Municipality,27.92427,84.40538,712.0
582,Devghat Rural Municipality,27.79595,84.42048,717.0
583,Ghiring Rural Municipality,27.89851,84.04693,505.0
584,Myagde Rural Municipality,28.00716,84.15608,501.0
585,Rhishing Rural Municipality,27.955337109,84.251223445,654.0
586,Aathabis Municipality,28.881355419,81.678899186,870.0
587,Chamunda Bindrasaini Municipality,28.93497,81.56441,1248.0
588,Dullu Municipality,28.85668,81.6047,1426.0
589,Narayan Municipality,28.8574,81.72687,1491.0
590,Bhagawatimai Rural Municipality,28.80132,81.81634,1363.0
591,Bhairabi Rural Municipality,28.94584,81.63676,1357.0
592,Dungeshwor Rural Municipality,28.75273,81.71793,1116.0
593,Gurans Rural Municipality,28.71071,81.64515,1829.0
594,Mahabu Rural Municipality,28.94235,81.69993,1721.0
595,Naumule Rural Municipality,28.90184,81.8079,1214.0
596,Thantikandh Rural Municipality,28.97632,81.5267,1492.0
597,Thuli Bheri Municipality,28.95691,82.85666,2585.0
598,Tripurasundari Municipality,29.01718,82.76359,2089.0
599,Chharka Tangsong Rural Municipality,28.97925,83.34043,4059.0
600,Dolpo Buddha Rural Municipality,29.28798,83.31846,5292.0
601,Jagadulla Rural Municipality,29.24206,82.66443,4218.0
602,Kaike Rural Municipality,28.92493,82.99396,3871.0
603,Mudkechula Rural Municipality,29.0553,82.53463,2405.0
604,Shey Phoksundo Rural Municipality,29.28383,82.93263,4581.0
605,Adanchuli Rural Municipality,29.70063,81.86346,2554.0
606,Chankheli Rural Municipality,29.85581,82.23629,3388.0
607,Kharpunath Rural Municipality,29.94523,81.85772,2121.0
608,Namkha Rural Municipality,30.16946,81.62035,5502.0
609,Sarkegad Rural Municipality,29.78796,81.89687,1990.0
610,Simkot Rural Municipality,30.13686,81.97407,5048.0
611,Tanjakot Rural Municipality,29.70535,81.7513,2893.0
612,Bheri Municipality,28.865419137,82.167889981,1493.0
613,Chhedagad Municipality,28.75089,82.01912,1623.0
614,Nalagad Municipality,28.865419137,82.167889981,1493.0
615,Barekot Rural Municipality,28.95961,82.25177,1755.0
616,Junichande Rural Municipality,28.90238,81.98813,2275.0
617,Kuse Rural Municipality,28.88024,82.149,2195.0
618,Shiwalaya Rural Municipality,28.68857,81.93365,1264.0
619,Chandannath Municipality,29.3252,82.17109,3033.0
620,Guthichaur Rural Municipality,29.18121,82.38002,3079.0
621,Hima Rural Municipality,29.26973,81.92985,2481.0
622,Kanakasundari Rural Municipality,29.41154,82.02027,2440.0
623,Patrasi Rural Municipality,29.33541,82.44929,3310.0
624,Sinja Rural Municipality,29.34107,82.03155,2859.0
625,Tatopani Rural Municipality,29.23367,82.05367,2294.0
626,Tila Rural Municipality,29.271714351,82.217266442,2512.0
627,Khandachakra Municipality,29.15009,81.61183,1771.0
628,Raskot Municipality,29.27465,81.64553,2674.0
629,Tilagufa Municipality,29.14612,81.85448,2515.0
630,Mahawai Rural Municipality,29.04137,81.85773,3862.0
631,Naraharinath Rural Municipality,29.22012,81.53317,2092.0
632,Pachaljharana Rural Municipality,29.26051,81.72308,1922.0
633,Palata Rural Municipality,29.33922,81.84204,1889.0
634,Sanni Tribeni Rural Municipality,29.26276,81.58511,2078.0
635,Subha Kalika Rural Municipality,29.08093,81.63039,2524.0
636,Chhayanath Rara Municipality,29.53397,82.15771,2110.0
637,Khatyad Rural Municipality,29.53028,81.90175,2227.0
638,Mugum Karmarong Rural Municipality,29.6789,82.53314,3920.0
639,Soru Rural Municipality,29.63093,81.96545,2181.0
640,Aathbiskot Municipality,28.846,82.52065,3649.0
641,Chaurjahari Municipality,28.63829,82.20051,761.0
642,Musikot Municipality,28.63101,82.45562,1494.0
643,Banfikot Rural Municipality,28.70292,82.51497,2484.0
644,Sani Bheri Rural Municipality,28.701164699,82.663955276,2465.0
645,Tribeni Rural Municipality,28.56905,82.42802,1570.0
646,Bagchaur Municipality,28.5219,82.07145,908.0
647,Bangad Kupinde Municipality,28.493,82.06911,960.0
648,Sharada Municipality,28.39009,82.16948,1212.0
649,Chhatreshwori Rural Municipality,28.3577,82.30807,1468.0
650,Darma Rural Municipality,28.54979,82.3204,1388.0
651,Kalimati Rural Municipality,28.28771,82.04614,722.0
652,Kapurkot Rural Municipality,28.23128,82.35008,1549.0
653,Kumakh Rural Municipality,28.401949637,82.143720613,1336.0
654,Siddha Kumakh Rural Municipality,28.4359401,81.063652,1336.0
655,Tribeni Rural Municipality,28.29616,82.29881,1547.0
656,Bheriganga Municipality,28.47025,81.68014,698.0
657,Birendranagar Municipality,28.60645,81.61429,728.0
658,Gurbhakot Municipality,28.43929,81.90146,636.0
659,Lekbeshi Municipality,28.53564,81.7639,1003.0
660,Panchpuri Municipality,28.78963,81.40383,380.0
661,Barahtal Rural Municipality,28.65372,81.45104,322.0
662,Chaukune Rural Municipality,28.85994,81.27875,714.0
663,Chingad Rural Municipality,28.62686,81.84098,1478.0
664,Simta Rural Municipality,28.54692,81.94508,1027.0
665,Kamalbazar Municipality,29.0635,81.33134,1963.0
666,Mangalsen Municipality,29.14109,81.22001,1285.0
667,Panchadewal Binayak Municipality,29.10081,81.44631,964.0
668,Sanphebagar Municipality,29.25887,81.18146,1317.0
669,Bannigadhi Jayagadh Rural Municipality,29.19204,81.30356,1542.0
670,Chaurpati Rural Municipality,29.20352,81.12968,1736.0
671,Dhakari Rural Municipality,28.99951,81.26129,1627.0
672,Mellekh Rural Municipality,29.26748,81.32136,1966.0
673,Ramaroshan Rural Municipality,29.20058,81.45138,1827.0
674,Turmakhad Rural Municipality,28.94179,81.36932,1460.0
675,Dasharathchanda Municipality,29.56037,80.41134,1391.0
676,Melauli Municipality,29.41567,80.44208,1328.0
677,Patan Municipality,27.90109,85.79494,1847.0
678,Purchaudi Municipality,29.60326,80.70177,1322.0
679,Dilasaini Rural Municipality,29.6534,80.58435,1330.0
680,Dogadakedar Rural Municipality,29.59137,80.529,1389.0
681,Pancheshwar Rural Municipality,29.43078,80.26872,1435.0
682,Shivanath Rural Municipality,29.41058,80.37271,1727.0
683,Sigas Rural Municipality,29.42557,80.73794,1184.0
684,Surnaya Rural Municipality,29.52967,80.615,1682.0
685,Bungal Municipality,29.68936,80.94905,3952.0
686,JayaPrithivi Municipality,29.55201,81.16174,2088.0
687,Bithadchir Rural Municipality,29.50404,80.856,1659.0
688,Chabispathivera Rural Municipality,29.56082,81.06176,1981.0
689,Durgathali Rural Municipality,29.53274,81.0056,2306.0
690,Kedarseu Rural Municipality,29.51347,80.93567,2353.0
691,Khaptadchhanna Rural Municipality,29.45771,81.21321,2579.0
692,Masta Rural Municipality,29.54237,81.29939,2553.0
693,SaiPaal Rural Municipality,29.965,81.21985,4065.0
694,Surma Rural Municipality,29.64195,81.08132,2375.0
695,Talkot Rural Municipality,29.61087,81.3076,1750.0
696,Thalara Rural Municipality,29.60788,81.31314,1698.0
697,Badimalika Municipality,29.43947,81.4992,2120.0
698,Budhiganga Municipality,29.35987,81.53034,3762.0
699,Budhinanda Municipality,29.53828,81.6178,2091.0
700,Tribeni Municipality,29.33594,81.43072,2618.0
701,Gaumul Rural Municipality,29.56923,81.48293,2417.0
702,Himali Rural Municipality,29.71252,81.61904,3138.0
703,Jagannath Rural Municipality,29.45252,81.69567,1667.0
704,Khaptad Chhededaha Rural Municipality,29.39867,81.2829,2019.0
705,Swami Kartik Khaapar Rural Municipality,29.42717,81.75914,3097.0
706,Amargadhi Municipality,29.23782,80.60651,2407.0
707,Parashuram Municipality,29.1555,80.27587,332.0
708,Ajaymeru Rural Municipality,29.364,80.55586,1839.0
709,Alital Rural Municipality,29.12405,80.48384,629.0
710,Bhageshwar Rural Municipality,29.32839,80.40252,1104.0
711,Ganayapdhura Rural Municipality,29.24841,80.68054,1892.0
712,Nawadurga Rural Municipality,29.36382,80.70247,1703.0
713,Mahakali Municipality,29.891965108,80.7918967,3947.0
714,Shailyashikhar Municipality,29.70637,80.575,1678.0
715,Apihimal Rural Municipality,29.87016,80.88376,2450.0
716,Byas Rural Municipality,30.101257497,80.959309917,4398.0
717,Dunhu Rural Municipality,29.8921,80.61957,1670.0
718,Lekam Rural Municipality,29.65574,80.46502,1264.0
719,Malikaarjun Rural Municipality,29.73763,80.48455,1689.0
720,Marma Rural Municipality,29.74163,80.84767,2625.0
721,Naugad Rural Municipality,29.7978,80.67992,2453.0
722,Dipayal Silgadi Municipality,29.2601,80.97434,1084.0
723,Shikhar Municipality,29.24472,80.82259,1275.0
724,Adharsha Rural Municipality,29.35152,80.86687,1834.0
725,Badikedar Rural Municipality,29.03501,80.86607,1479.0
726,Bogtan Foodsil Rural Municipality,29.04997,81.066,1024.0
727,Jorayal Rural Municipality,29.10286,80.67617,1121.0
728,K I Singh Rural Municipality,29.17769,80.98034,1036.0
729,Purbichauki Rural Municipality,29.27055,81.06172,1188.0
730,Sayal Rural Municipality,28.9884,80.89138,1166.0
731,Bhajani Municipality,28.4914,80.97963,145.0
732,Gauriganga Municipality,28.7515,80.81065,190.0
733,Ghodaghodi Municipality,28.7146,80.95036,180.0
734,Godawari Municipality,28.909,80.56706,829.0
735,Lamkichuha Municipality,28.741474423,80.879157184,214.0
736,Tikapur Municipality,28.5288,81.12495,158.0
737,Bardagoriya Rural Municipality,28.68775,81.04411,184.0
738,Chure Rural Municipality,28.91069,80.81186,779.0
739,Janaki Rural Municipality,28.56864,81.14518,168.0
740,Joshipur Rural Municipality,28.56493,81.02158,155.0
741,Kailari Rural Municipality,28.59775,80.79601,159.0
742,Mohanyal Rural Municipality,28.81341,81.11331,515.0
743,Dhangadhi Sub-Metropolitian City,28.69581,80.61384,181.0
744,Bedkot Municipality,28.98192,80.2671,250.0
745,Belauri Municipality,28.68009,80.33933,176.0
746,Bhimdatta Municipality,28.97363,80.1761,223.0
747,Krishnapur Municipality,28.91483,80.44527,246.0
748,Mahakali Municipality,28.861775403,80.321789483,216.0
749,Punarbas Municipality,28.63896,80.46738,180.0
